[BEGIN] 2022-02-17 오후 3:02:55
$GPRMC,060256.00,A,3733.36221,N,12702.73218,E,0.968,,170222,,,A*7D
$GPVTG,,T,,M,0.968,N,1.792,K,A*29
$GPGGA,060256.00,3733.36221,N,12702.73218,E,1,04,13.18,27.0,M,18.6,M,,*57
$GPGSA,A,3,04,27,09,08,,,,,,,,,24.61,13.18,20.78*35
$GPGSV,2,1,07,04,35,238,34,08,51,227,29,09,30,280,36,16,60,038,*7E
$GPGSV,2,2,07,18,16,045,,21,08,181,,27,88,248,30*4A
$GPGLL,3733.36221,N,12702.73218,E,060256.00,A,A*67
$GPRMC,060257.00,A,3733.36220,N,12702.73131,E,1.044,,170222,,,A*73
$GPVTG,,T,,M,1.044,N,1.933,K,A*2A
$GPGGA,060257.00,3733.36220,N,12702.73131,E,1,04,13.15,29.2,M,18.6,M,,*5E
$GPGSA,A,3,04,27,09,08,,,,,,,,,24.55,13.15,20.73*34
$GPGSV,2,1,07,04,35,238,39,08,51,227,39,09,30,280,41,16,60,038,*72
$GPGSV,2,2,07,18,16,045,,21,08,181,23,27,88,248,39*42
$GPGLL,3733.36220,N,12702.73131,E,060257.00,A,A*6F
$GPRMC,060258.00,A,3733.36230,N,12702.73087,E,0.797,,170222,,,A*79
$GPVTG,,T,,M,0.797,N,1.475,K,A*2D
$GPGGA,060258.00,3733.36230,N,12702.73087,E,1,04,13.12,30.3,M,18.6,M,,*52
$GPGSA,A,3,04,27,09,08,,,,,,,,,24.49,13.12,20.68*34
$GPGSV,2,1,07,04,35,238,32,08,51,227,40,09,30,280,39,16,60,038,*78
$GPGSV,2,2,07,18,16,045,,21,08,181,21,27,88,248,40*4E
$GPGLL,3733.36230,N,12702.73087,E,060258.00,A,A*6D
$GPRMC,060259.00,A,3733.36236,N,12702.73083,E,1.037,,170222,,,A*76
$GPVTG,,T,,M,1.037,N,1.920,K,A*2C
$GPGGA,060259.00,3733.36236,N,12702.73083,E,1,04,13.09,30.6,M,18.6,M,,*5E
$GPGSA,A,3,04,27,09,08,,,,,,,,,24.44,13.09,20.64*3F
$GPGSV,2,1,07,04,35,238,33,08,51,227,43,09,30,280,37,16,60,038,*74
$GPGSV,2,2,07,18,16,045,,21,08,181,30,27,88,248,41*4F
$GPGLL,3733.36236,N,12702.73083,E,060259.00,A,A*6E
$GPRMC,060300.00,A,3733.36238,N,12702.73156,E,0.917,,170222,,,A*76
$GPVTG,,T,,M,0.917,N,1.698,K,A*2A
$GPGGA,060300.00,3733.36238,N,12702.73156,E,1,04,13.06,28.8,M,18.6,M,,*5C
$GPGSA,A,3,04,27,09,08,,,,,,,,,24.38,13.06,20.59*35
$GPGSV,2,1,07,04,35,238,38,08,51,227,38,09,30,280,37,16,60,038,*73
$GPGSV,2,2,07,18,16,045,,21,08,181,30,27,88,248,42*4C
$GPGLL,3733.36238,N,12702.73156,E,060300.00,A,A*64
$GPRMC,060301.00,A,3733.36248,N,12702.73079,E,0.944,,170222,,,A*7A
$GPVTG,,T,,M,0.944,N,1.748,K,A*20
$GPGGA,060301.00,3733.36248,N,12702.73079,E,1,04,13.03,30.6,M,18.6,M,,*54
$GPGSA,A,3,04,27,09,08,,,,,,,,,24.33,13.03,20.54*36
$GPGSV,2,1,07,04,35,238,36,08,51,227,41,09,30,280,39,16,60,038,*7D
$GPGSV,2,2,07,18,16,045,,21,08,181,30,27,88,248,43*4D
$GPGLL,3733.36248,N,12702.73079,E,060301.00,A,A*6E
$GPRMC,060302.00,A,3733.36244,N,12702.73048,E,0.797,,170222,,,A*77
$GPVTG,,T,,M,0.797,N,1.477,K,A*2F
$GPGGA,060302.00,3733.36244,N,12702.73048,E,1,04,13.00,31.2,M,18.6,M,,*5F
$GPGSA,A,3,04,27,09,08,,,,,,,,,24.27,13.00,20.49*3C
$GPGSV,2,1,07,04,35,238,37,08,51,227,39,09,30,280,39,16,60,038,*73
$GPGSV,2,2,07,18,16,045,,21,08,181,30,27,88,248,40*4E
$GPGLL,3733.36244,N,12702.73048,E,060302.00,A,A*63
$GPRMC,060303.00,A,3733.36235,N,12702.72906,E,0.379,,170222,,,A*76
$GPVTG,,T,,M,0.379,N,0.702,K,A*2B
$GPGGA,060303.00,3733.36235,N,12702.72906,E,1,04,12.97,34.3,M,18.6,M,,*51
$GPGSA,A,3,04,27,09,08,,,,,,,,,24.22,12.97,20.45*3A
$GPGSV,2,1,07,04,35,238,41,08,51,227,39,09,30,280,38,16,60,038,*73
$GPGSV,2,2,07,18,16,045,,21,08,181,24,27,88,248,42*49
$GPGLL,3733.36235,N,12702.72906,E,060303.00,A,A*66
$GPRMC,060304.00,A,3733.36247,N,12702.72850,E,0.735,,170222,,,A*7A
$GPVTG,,T,,M,0.735,N,1.362,K,A*24
$GPGGA,060304.00,3733.36247,N,12702.72850,E,1,04,12.94,35.8,M,18.6,M,,*58
$GPGSA,A,3,04,27,09,08,,,,,,,,,24.16,12.94,20.40*3B
$GPGSV,2,1,07,04,35,238,36,08,51,227,38,09,30,280,34,16,60,038,*7E
$GPGSV,2,2,07,18,16,045,,21,08,181,26,27,88,248,40*49
$GPGLL,3733.36247,N,12702.72850,E,060304.00,A,A*66
$GPRMC,060305.00,A,3733.36245,N,12702.72821,E,0.370,,170222,,,A*7A
$GPVTG,,T,,M,0.370,N,0.685,K,A*2C
$GPGGA,060305.00,3733.36245,N,12702.72821,E,1,04,12.92,36.8,M,18.6,M,,*58
$GPGSA,A,3,04,27,09,08,,,,,,,,,24.11,12.92,20.35*38
$GPGSV,2,1,07,04,35,238,39,08,51,227,40,09,30,280,36,16,60,038,*7C
$GPGSV,2,2,07,18,16,045,,21,08,181,27,27,88,248,42*4A
$GPGLL,3733.36245,N,12702.72821,E,060305.00,A,A*63
$GPRMC,060306.00,A,3733.36248,N,12702.72848,E,1.000,,170222,,,A*7E
$GPVTG,,T,,M,1.000,N,1.853,K,A*2D
$GPGGA,060306.00,3733.36248,N,12702.72848,E,1,04,12.89,36.8,M,18.6,M,,*53
$GPGSA,A,3,04,27,09,08,,,,,,,,,24.05,12.89,20.31*33
$GPGSV,2,1,07,04,35,238,26,08,51,227,29,09,30,280,25,16,60,038,*7F
$GPGSV,2,2,07,18,16,045,,21,08,181,26,27,88,248,30*4E
$GPGLL,3733.36248,N,12702.72848,E,060306.00,A,A*62
$GPRMC,060307.00,V,,,,,,,170222,,,N*7B
$GPVTG,,,,,,,,,N*30
$GPGGA,060307.00,,,,,0,03,3.09,,,,,,*5D
$GPGSA,A,1,27,09,08,,,,,,,,,,3.24,3.09,1.00*0A
$GPGSV,3,1,11,04,35,238,,08,51,227,29,09,30,280,29,16,60,038,28*7B
$GPGSV,3,2,11,18,16,045,23,21,08,181,25,25,,,29,26,,,33*7A
$GPGSV,3,3,11,27,88,248,35,47,22,116,37,50,43,151,32*43
$GPGLL,,,,,060307.00,V,N*48
$GPRMC,060308.00,V,,,,,,,170222,,,N*74
$GPVTG,,,,,,,,,N*30
$GPGGA,060308.00,,,,,0,04,3.09,,,,,,*55
$GPGSA,A,1,04,27,09,08,,,,,,,,,3.25,3.09,1.00*0F
$GPGSV,3,1,11,04,35,238,20,08,51,227,33,09,30,280,28,16,60,038,16*7E
$GPGSV,3,2,11,18,16,045,20,21,08,181,26,25,,,26,26,,,26*71
$GPGSV,3,3,11,27,88,248,41,47,22,116,28,50,43,151,28*45
$GPGLL,,,,,060308.00,V,N*47
$GPRMC,060309.00,V,,,,,,,170222,,,N*75
$GPVTG,,,,,,,,,N*30
$GPGGA,060309.00,,,,,0,04,3.09,,,,,,*54
$GPGSA,A,1,04,27,09,08,,,,,,,,,3.25,3.09,1.00*0F
$GPGSV,3,1,11,04,35,238,17,08,51,227,28,09,30,280,27,16,60,038,26*7C
$GPGSV,3,2,11,18,16,045,,21,08,181,25,25,,,24,26,,,23*77
$GPGSV,3,3,11,27,88,248,39,47,22,116,27,50,43,151,27*4A
$GPGLL,,,,,060309.00,V,N*46
$GPRMC,060310.00,V,,,,,,,170222,,,N*7D
$GPVTG,,,,,,,,,N*30
$GPGGA,060310.00,,,,,0,04,3.09,,,,,,*5C
$GPGSA,A,1,04,27,09,08,,,,,,,,,3.25,3.09,1.00*0F
$GPGSV,3,1,09,04,35,238,15,08,51,227,38,09,30,280,28,16,60,038,22*7D
$GPGSV,3,2,09,18,16,045,,21,08,181,26,25,,,20,26,,,21*7B
$GPGSV,3,3,09,27,88,248,39*41
$GPGLL,,,,,060310.00,V,N*4E
$GPRMC,060311.00,A,3733.36543,N,12702.72799,E,2.992,,170222,,,A*76
$GPVTG,,T,,M,2.992,N,5.541,K,A*26
$GPGGA,060311.00,3733.36543,N,12702.72799,E,1,04,12.75,45.6,M,18.6,M,,*53
$GPGSA,A,3,04,27,09,08,,,,,,,,,23.78,12.75,20.08*37
$GPGSV,3,1,09,04,35,238,21,08,51,227,36,09,30,280,29,16,60,038,19*7D
$GPGSV,3,2,09,18,16,045,,21,08,181,25,25,,,17,26,,,18*76
$GPGSV,3,3,09,27,88,248,35*4D
$GPGLL,3733.36543,N,12702.72799,E,060311.00,A,A*6B
$GPRMC,060312.00,A,3733.36570,N,12702.72883,E,2.530,,170222,,,A*75
$GPVTG,,T,,M,2.530,N,4.685,K,A*28
$GPGGA,060312.00,3733.36570,N,12702.72883,E,1,04,12.72,43.9,M,18.6,M,,*5A
$GPGSA,A,3,04,27,09,08,,,,,,,,,23.73,12.72,20.03*30
$GPGSV,2,1,08,04,35,238,24,08,51,227,28,09,30,280,22,16,60,038,13*76
$GPGSV,2,2,08,18,16,045,,21,08,181,25,25,,,10,27,88,248,31*45
$GPGLL,3733.36570,N,12702.72883,E,060312.00,A,A*6C
$GPRMC,060313.00,A,3733.36557,N,12702.72903,E,1.351,,170222,,,A*7A
$GPVTG,,T,,M,1.351,N,2.501,K,A*23
$GPGGA,060313.00,3733.36557,N,12702.72903,E,1,04,12.69,41.6,M,18.6,M,,*50
$GPGSA,A,3,04,27,09,08,,,,,,,,,23.68,12.69,19.99*39
$GPGSV,2,1,08,04,35,238,25,08,51,227,19,09,30,280,22,16,60,038,10*76
$GPGSV,2,2,08,18,16,045,,21,08,181,23,25,,,08,27,88,248,24*4E
$GPGLL,3733.36557,N,12702.72903,E,060313.00,A,A*61
$GPRMC,060314.00,A,3733.36510,N,12702.72919,E,1.134,,170222,,,A*74
$GPVTG,,T,,M,1.134,N,2.100,K,A*27
$GPGGA,060314.00,3733.36510,N,12702.72919,E,1,04,12.67,39.7,M,18.6,M,,*5F
$GPGSA,A,3,04,27,09,08,,,,,,,,,23.63,12.67,19.94*31
$GPGSV,2,1,08,04,35,238,22,08,51,227,28,09,30,280,22,16,60,038,10*73
$GPGSV,2,2,08,18,16,045,,21,08,181,21,25,,,08,27,88,248,26*4E
$GPGLL,3733.36510,N,12702.72919,E,060314.00,A,A*6E
$GPRMC,060315.00,A,3733.36272,N,12702.72856,E,4.738,,170222,,,A*73
$GPVTG,,T,,M,4.738,N,8.775,K,A*26
$GPGGA,060315.00,3733.36272,N,12702.72856,E,1,04,12.64,37.7,M,18.6,M,,*5A
$GPGSA,A,3,04,27,09,08,,,,,,,,,23.58,12.64,19.90*3E
$GPGSV,2,1,08,04,35,238,20,08,51,227,19,09,30,280,20,16,60,038,09*79
$GPGSV,2,2,08,18,16,045,,21,08,181,20,25,,,07,27,88,248,25*43
$GPGLL,3733.36272,N,12702.72856,E,060315.00,A,A*66
$GPRMC,060316.00,A,3733.36254,N,12702.72946,E,3.200,,170222,,,A*7D
$GPVTG,,T,,M,3.200,N,5.926,K,A*2A
$GPGGA,060316.00,3733.36254,N,12702.72946,E,1,04,12.61,35.9,M,18.6,M,,*54
$GPGSA,A,3,04,27,09,08,,,,,,,,,23.52,12.61,19.86*36
$GPGSV,2,1,08,04,35,238,18,08,51,227,19,09,30,280,19,16,60,038,*71
$GPGSV,2,2,08,18,16,045,,21,08,181,17,25,,,07,27,88,248,24*46
$GPGLL,3733.36254,N,12702.72946,E,060316.00,A,A*61
$GPRMC,060317.00,A,3733.36448,N,12702.73154,E,1.835,,170222,,,A*73
$GPVTG,,T,,M,1.835,N,3.398,K,A*2D
$GPGGA,060317.00,3733.36448,N,12702.73154,E,1,04,12.59,34.2,M,18.6,M,,*55
$GPGSA,A,3,04,27,09,08,,,,,,,,,23.47,12.59,19.81*3E
$GPGSV,2,1,08,04,35,238,18,08,51,227,20,09,30,280,20,16,60,038,*71
$GPGSV,2,2,08,18,16,045,,21,08,181,15,25,,,07,27,88,248,24*44
$GPGLL,3733.36448,N,12702.73154,E,060317.00,A,A*61
$GPRMC,060318.00,A,3733.36491,N,12702.73303,E,2.355,,170222,,,A*76
$GPVTG,,T,,M,2.355,N,4.362,K,A*21
$GPGGA,060318.00,3733.36491,N,12702.73303,E,1,04,12.56,32.8,M,18.6,M,,*5D
$GPGSA,A,3,04,27,09,08,,,,,,,,,23.42,12.56,19.77*3D
$GPGSV,2,1,08,04,35,238,17,08,51,227,19,09,30,280,20,16,60,038,*74
$GPGSV,2,2,08,18,16,045,,21,08,181,11,25,,,07,27,88,248,23*47
$GPGLL,3733.36491,N,12702.73303,E,060318.00,A,A*6A
$GPRMC,060319.00,A,3733.36428,N,12702.73397,E,3.430,,170222,,,A*7D
$GPVTG,,T,,M,3.430,N,6.352,K,A*25
$GPGGA,060319.00,3733.36428,N,12702.73397,E,1,04,12.53,31.0,M,18.6,M,,*5D
$GPGSA,A,3,04,27,09,08,,,,,,,,,23.37,12.53,19.72*3F
$GPGSV,2,1,08,04,35,238,16,08,51,227,17,09,30,280,21,16,60,038,17*7C
$GPGSV,2,2,08,18,16,045,,21,08,181,,25,,,07,27,88,248,21*45
$GPGLL,3733.36428,N,12702.73397,E,060319.00,A,A*64
$GPRMC,060320.00,V,,,,,,,170222,,,N*7E
$GPVTG,,,,,,,,,N*30
$GPGGA,060320.00,,,,,0,04,6.77,,,,,,*53
$GPGSA,A,1,04,27,09,08,,,,,,,,,6.85,6.77,1.00*0C
$GPGSV,2,1,08,04,35,238,16,08,51,227,30,09,30,280,29,16,60,038,12*74
$GPGSV,2,2,08,18,16,045,,21,08,181,27,25,,,05,27,88,248,23*40
$GPGLL,,,,,060320.00,V,N*4D
$GPRMC,060321.00,V,,,,,,,170222,,,N*7F
$GPVTG,,,,,,,,,N*30
$GPGGA,060321.00,,,,,0,04,6.77,,,,,,*52
$GPGSA,A,1,04,27,09,08,,,,,,,,,6.84,6.77,1.00*0D
$GPGSV,2,1,08,04,35,238,39,08,51,227,42,09,30,280,25,16,60,038,10*72
$GPGSV,2,2,08,18,16,045,,21,08,181,32,25,,,05,27,88,248,36*40
$GPGLL,,,,,060321.00,V,N*4C
$GPRMC,060322.00,V,,,,,,,170222,,,N*7C
$GPVTG,,,,,,,,,N*30
$GPGGA,060322.00,,,,,0,04,6.77,,,,,,*51
$GPGSA,A,1,04,27,09,08,,,,,,,,,6.84,6.77,1.00*0D
$GPGSV,2,1,08,04,35,238,36,08,51,227,39,09,30,280,39,16,60,038,*7D
$GPGSV,2,2,08,18,16,045,,21,08,181,27,25,,,05,27,88,248,36*44
$GPGLL,,,,,060322.00,V,N*4F
$GPRMC,060323.00,V,,,,,,,170222,,,N*7D
$GPVTG,,,,,,,,,N*30
$GPGGA,060323.00,,,,,0,04,6.77,,,,,,*50
$GPGSA,A,1,04,27,09,08,,,,,,,,,6.84,6.77,1.00*0D
$GPGSV,2,1,08,04,35,238,39,08,51,227,40,09,30,280,30,16,60,038,*75
$GPGSV,2,2,08,18,16,045,,21,08,181,27,25,,,06,27,88,248,40*46
$GPGLL,,,,,060323.00,V,N*4E
$GPRMC,060324.00,V,,,,,,,170222,,,N*7A
$GPVTG,,,,,,,,,N*30
$GPGGA,060324.00,,,,,0,04,6.76,,,,,,*56
$GPGSA,A,1,04,27,09,08,,,,,,,,,6.84,6.76,1.00*0C
$GPGSV,2,1,08,04,35,238,40,08,51,227,43,09,30,280,36,16,60,038,*7E
$GPGSV,2,2,08,18,16,045,,21,08,181,30,25,,,05,27,88,248,38*4C
$GPGLL,,,,,060324.00,V,N*49
$GPRMC,060325.00,A,3733.36320,N,12702.72634,E,1.794,,170222,,,A*7F
$GPVTG,,T,,M,1.794,N,3.323,K,A*29
$GPGGA,060325.00,3733.36320,N,12702.72634,E,1,04,12.38,51.7,M,18.6,M,,*5C
$GPGSA,A,3,04,27,09,08,,,,,,,,,23.07,12.38,19.47*37
$GPGSV,2,1,07,04,35,238,39,08,51,227,41,09,30,280,21,16,60,038,*7B
$GPGSV,2,2,07,18,16,045,,21,08,181,29,27,88,248,42*44
$GPGLL,3733.36320,N,12702.72634,E,060325.00,A,A*69
$GPRMC,060326.00,A,3733.36136,N,12702.72473,E,5.155,,170222,,,A*77
$GPVTG,,T,,M,5.155,N,9.547,K,A*28
$GPGGA,060326.00,3733.36136,N,12702.72473,E,1,04,12.35,55.0,M,18.6,M,,*55
$GPGSA,A,3,04,27,09,08,,,,,,,,,23.02,12.35,19.42*3A
$GPGSV,2,1,07,04,35,238,16,08,51,227,37,09,30,280,24,16,60,038,*72
$GPGSV,2,2,07,18,16,045,,21,08,181,30,27,88,248,40*4E
$GPGLL,3733.36136,N,12702.72473,E,060326.00,A,A*6E
$GPRMC,060327.00,A,3733.36113,N,12702.72318,E,5.563,,170222,,,A*7A
$GPVTG,,T,,M,5.563,N,10.303,K,A*17
$GPGGA,060327.00,3733.36113,N,12702.72318,E,1,04,12.32,57.2,M,18.6,M,,*5E
$GPGSA,A,3,04,27,09,08,,,,,,,,,22.97,12.32,19.38*3D
$GPGSV,2,1,07,04,35,237,28,08,51,227,36,09,30,280,25,16,60,038,*70
$GPGSV,2,2,07,18,16,045,,21,08,181,29,27,88,248,42*44

[END] 2022-02-17 오후 3:03:26
